,City,Cloudiness,Country,Date,Humidity,Lat,Lng,Max Temp,Wind Speed
0,Ushuaia,20,AR,1577993539,71,-54.81,-68.31,53.6,25.28
1,Katsuura,75,JP,1577993539,75,33.93,134.5,48.0,4.7
2,Verkhnyaya Inta,60,RU,1577993539,89,65.99,60.32,2.43,6.82
3,Vaini,0,IN,1577993539,92,15.34,74.49,63.45,1.28
4,Jamestown,49,AU,1577993539,16,-33.21,138.6,75.13,15.99
5,Mataura,64,NZ,1577993539,83,-46.19,168.86,48.99,17.0
6,Kavieng,35,PG,1577993539,74,-2.57,150.8,82.98,3.98
7,Sumenep,100,ID,1577993539,81,-7.02,113.87,79.65,11.12
8,Byron Bay,75,AU,1577993371,93,-28.65,153.62,71.01,2.64
9,Saint George,20,GR,1577993539,59,39.45,22.34,42.01,6.93
10,Roald,75,NO,1577993539,81,62.58,6.12,46.0,24.16
11,Kavaratti,62,IN,1577993539,81,10.57,72.64,81.46,13.96
12,Forestville,40,CA,1577993539,68,48.74,-69.09,30.2,12.75
13,Carnarvon,0,ZA,1577993539,67,-30.97,22.13,66.9,20.94
14,East London,75,ZA,1577993539,88,-33.02,27.91,71.6,10.29
15,Codrington,68,AU,1577993539,93,-28.95,153.24,68.0,0.51
16,Makungu,100,TZ,1577993539,94,-8.74,35.29,60.94,2.28
17,Hithadhoo,0,MV,1577993439,78,-0.6,73.08,82.69,13.13
18,Wloclawek,0,PL,1577993540,77,52.65,19.07,33.01,3.0
19,Saskylakh,11,RU,1577993540,91,71.97,114.09,-17.03,8.08
20,Leningradskiy,0,RU,1577993540,82,69.38,178.42,-11.16,13.96
21,Caravelas,100,BR,1577993540,81,-17.73,-39.27,78.8,14.38
22,Kapaa,40,US,1577993540,78,22.08,-159.32,75.2,5.82
23,Pochutla,20,MX,1577993540,58,15.74,-96.47,89.01,17.22
24,Margate,75,AU,1577993540,72,-43.03,147.26,60.8,3.36
25,Kruisfontein,85,ZA,1577993496,85,-34.0,24.73,67.21,8.41
26,Yellowknife,90,CA,1577993416,84,62.45,-114.38,8.6,8.05
27,Bredasdorp,0,ZA,1577993540,72,-34.53,20.04,68.0,3.36
28,Nanortalik,100,GL,1577993540,35,60.14,-45.24,29.64,5.66
29,Bathsheba,40,BB,1577993540,58,13.22,-59.52,84.2,17.22
30,Tiksi,0,RU,1577993540,61,71.64,128.87,-19.61,3.69
31,San Policarpo,100,PH,1577993540,84,12.18,125.51,79.18,18.63
32,Sao Joao da Barra,40,BR,1577993540,58,-21.64,-41.05,86.0,23.04
33,Sitka,100,US,1577993540,50,37.17,-99.65,50.0,17.0
34,Alofi,0,NU,1577993541,69,-19.06,-169.92,76.87,10.07
35,Hasaki,20,JP,1577993541,80,35.73,140.83,35.6,3.36
36,Pathein,0,MM,1577993541,80,16.78,94.73,73.83,6.15
37,Tezu,100,IN,1577993541,93,27.93,96.16,55.99,1.54
38,Syracuse,1,US,1577993541,45,43.05,-76.15,51.8,11.41
39,Chokurdakh,0,RU,1577993541,94,70.62,147.9,-24.57,3.04
40,Rikitea,100,PF,1577993541,75,-23.12,-134.97,79.07,6.73
41,Esperance,75,AU,1577993541,82,-33.86,121.89,60.8,12.75
42,Kidal,0,ML,1577993541,23,18.44,1.41,53.13,13.94
43,Torbay,90,CA,1577993541,83,47.66,-52.73,34.0,17.22
44,Beira,40,ES,1577993541,81,43.2,-8.36,53.01,9.17
45,Souillac,100,FR,1577993541,93,45.6,-0.6,46.0,8.05
46,Punta Arenas,0,CL,1577993541,44,-53.16,-70.91,60.8,17.22
47,Resplendor,100,BR,1577993541,93,-19.33,-41.26,74.28,1.57
48,Bemmel,75,NL,1577993541,93,51.89,5.9,45.0,8.05
49,Tura,95,RU,1577993541,93,64.27,100.22,-3.17,5.1
50,New Norfolk,75,AU,1577993541,72,-42.78,147.06,60.8,3.36
51,Arman,100,RU,1577993541,72,59.7,150.17,24.03,41.36
52,Butaritari,100,KI,1577993541,74,3.07,172.79,82.44,0.94
53,Saint-Augustin,75,CA,1577993541,94,45.63,-73.98,39.0,2.24
54,Ponta do Sol,100,BR,1577993542,82,-20.63,-46.0,74.89,2.91
55,Ilulissat,75,GL,1577993542,78,69.22,-51.1,8.6,20.8
56,Cabo San Lucas,0,MX,1577993508,47,22.89,-109.91,73.0,8.99
57,Fort Myers Beach,1,US,1577993386,48,26.45,-81.95,86.0,9.17
58,Barrow,16,AR,1577993284,32,-38.31,-60.23,83.77,10.63
59,Albany,20,US,1577993542,52,42.65,-73.75,45.0,6.93
60,Ubauro,100,PK,1577993542,32,28.16,69.73,54.75,7.7
61,Tiarei,75,PF,1577993542,66,-17.53,-149.33,86.0,13.87
62,Altay,0,CN,1577993542,66,47.83,88.13,15.67,6.11
63,Buala,0,SB,1577993542,77,-8.15,159.59,81.09,4.83
64,Sao Filipe,100,CV,1577993542,71,14.9,-24.5,71.02,15.68
65,Hermanus,0,ZA,1577993542,77,-34.42,19.24,66.99,10.0
66,Shieli,99,KZ,1577993542,85,44.18,66.74,31.68,3.02
67,Narsaq,75,GL,1577993542,56,60.91,-46.05,15.8,2.24
68,Akdepe,90,TM,1577993542,68,42.05,59.39,41.0,4.7
69,Arlit,1,NE,1577993542,27,18.74,7.39,52.3,11.23
70,Pisco,20,PE,1577993542,30,-13.71,-76.2,75.0,11.41
71,Samaipata,71,BO,1577993542,58,-18.18,-63.88,76.06,3.51
72,Karratha,100,AU,1577993542,72,-20.74,116.85,83.55,9.44
73,Botngard,75,NO,1577993542,87,63.77,9.81,48.2,13.87
74,Bom Jardim,40,BR,1577993543,48,-7.8,-35.59,87.8,12.75
75,Avarua,83,CK,1577993543,73,-21.21,-159.78,77.0,2.24
76,Nikolskoye,90,RU,1577993543,80,59.7,30.79,41.0,15.66
77,Atuona,0,PF,1577993543,78,-9.8,-139.03,80.65,13.53
78,Coquimbo,20,CL,1577993543,63,-29.95,-71.34,66.2,13.87
79,Port Hardy,90,CA,1577993543,93,50.7,-127.42,37.4,14.99
80,Chuy,52,UY,1577993543,73,-33.69,-53.46,71.82,11.9
81,San Juan de los Morros,2,VE,1577993543,51,9.91,-67.35,79.68,4.12
82,Nelson Bay,90,AU,1577993543,94,-32.72,152.14,71.01,5.82
83,Labuhan,67,ID,1577993543,95,-2.54,115.51,72.88,1.25
84,Upernavik,100,GL,1577993543,59,72.79,-56.15,-1.01,16.42
85,Puerto Ayora,75,EC,1577993543,65,-0.74,-90.35,82.4,11.41
86,Petropavlovsk-Kamchatskiy,75,RU,1577993445,72,53.05,158.65,10.4,6.71
87,Artyom,0,RU,1577993543,76,43.36,132.19,-5.8,2.24
88,Talnakh,100,RU,1577993543,77,69.49,88.39,-2.2,17.9
89,Pinega,100,RU,1577993543,92,64.7,43.39,33.69,12.97
90,Daru,96,PG,1577993543,82,-9.07,143.21,75.58,1.41
91,Henties Bay,63,NA,1577993543,89,-22.12,14.28,63.0,3.0
92,Atambua,95,ID,1577993543,89,-9.11,124.89,74.86,2.21
93,Smithers,40,CA,1577993543,85,54.78,-127.17,19.4,2.24
94,Aden,0,YE,1577993393,75,12.79,45.03,77.85,11.54
95,Hat Yai,20,TH,1577993544,88,7.0,100.46,78.8,4.7
96,Nha Trang,40,VN,1577993544,88,12.24,109.19,77.0,14.99
97,Geraldton,90,CA,1577993544,92,49.72,-86.95,30.2,6.46
98,Riyadh,0,SA,1577993544,45,24.63,46.72,66.2,5.82
99,Iskateley,100,RU,1577993544,94,67.68,53.15,10.06,18.86
100,Deputatskiy,63,RU,1577993544,77,69.3,139.9,-25.28,2.33
101,Lavrentiya,0,RU,1577993544,88,65.58,-170.99,-13.54,13.49
102,Kodiak,1,US,1577993544,57,39.95,-94.76,52.0,3.36
103,Kaitangata,82,NZ,1577993544,61,-46.28,169.85,54.0,15.01
104,Saint-Georges,100,CA,1577993544,82,46.12,-70.67,30.99,1.99
105,Hrebinka,100,UA,1577993544,90,50.12,32.43,32.02,6.31
106,Hilo,1,US,1577993544,44,19.71,-155.08,80.6,4.7
107,Hobart,75,AU,1577993458,72,-42.88,147.33,60.8,3.36
108,Mar del Plata,0,AR,1577993544,18,-46.43,-67.52,90.54,25.1
109,Kavos,20,GR,1577993544,74,38.83,22.83,41.0,8.05
110,Kenai,20,US,1577993544,76,60.55,-151.26,9.0,3.36
111,Saldanha,100,PT,1577993544,81,41.42,-6.55,39.42,2.84
112,Deder,3,ET,1577993545,71,9.31,41.44,64.17,0.27
113,Brae,100,GB,1577993545,93,60.4,-1.35,42.8,20.8
114,Luderitz,0,NA,1577993545,68,-26.65,15.16,69.8,28.86
115,Fairbanks,1,US,1577993545,83,64.84,-147.72,-5.8,3.24
116,Camacha,20,PT,1577993545,68,33.08,-16.33,66.2,11.41
117,Balabac,88,PH,1577993545,72,7.99,117.06,81.46,18.57
118,Dikson,100,RU,1577993545,91,73.51,80.55,-2.51,23.44
119,Port Alfred,99,ZA,1577993545,91,-33.59,26.89,68.0,14.99
120,Araouane,0,ML,1577993545,19,18.9,-3.53,57.78,10.2
121,Barda,14,RU,1577993545,97,56.93,55.59,-0.6,5.66
122,Virginia Beach,40,US,1577993543,41,36.85,-75.98,60.01,13.87
123,Los Llanos de Aridane,100,ES,1577993545,55,28.66,-17.92,64.4,9.17
124,Namwala,100,ZM,1577993545,91,-15.75,26.45,68.34,2.68
125,Tainan,20,TW,1577993399,87,22.99,120.21,70.0,3.36
126,Matara,100,BI,1577993545,90,-3.48,29.48,59.76,3.56
127,Terrace,90,CA,1577993545,92,54.52,-128.61,30.0,1.23
128,Kulhudhuffushi,0,MV,1577993545,75,6.62,73.07,82.24,11.9
129,Carlsbad,40,CZ,1577993545,92,50.23,12.87,32.0,6.93
130,Redlands,75,US,1577993545,100,34.06,-117.19,71.6,2.77
131,Gravdal,75,NO,1577993546,87,59.79,5.78,46.4,20.8
132,Mahebourg,75,MU,1577993546,88,-20.41,57.7,78.8,3.36
133,Biak,100,ID,1577993546,71,-0.91,122.88,82.09,5.59
134,Bandarbeyla,33,SO,1577993546,78,9.49,50.81,78.12,16.62
135,Qadirpur Ran,40,PK,1577993546,81,30.29,71.67,48.2,7.63
136,Bluff,20,AU,1577993546,78,-23.58,149.07,75.74,13.06
137,Tornio,75,FI,1577993546,93,61.12,27.27,37.99,14.99
138,Mierlo,75,NL,1577993546,93,51.44,5.62,43.0,8.05
139,Vieux-Habitants,40,GP,1577993546,58,16.06,-61.77,86.0,9.17
140,Longyearbyen,0,NO,1577993546,54,78.22,15.63,5.0,13.87
141,Khatanga,100,RU,1577993392,97,71.98,102.47,-7.19,3.98
142,Haveli,100,PK,1577993546,70,33.47,72.12,46.4,6.93
143,Naze,0,NG,1577993546,50,5.43,7.07,77.0,7.0
144,Cape Town,20,ZA,1577993546,82,-33.93,18.42,68.0,20.8
145,Poum,20,MK,1577993546,50,41.28,20.71,32.0,4.7
146,Faanui,100,PF,1577993546,77,-16.48,-151.75,81.54,10.31
147,Borger,90,NL,1577993546,93,52.92,6.79,39.99,14.99
148,Tuktoyaktuk,75,CA,1577993546,75,69.44,-133.03,-13.0,14.99
149,Provideniya,0,RU,1577993546,79,64.42,-173.23,-12.64,8.88
150,Marienburg,90,DE,1577993546,80,52.12,9.98,37.0,4.7
151,Perth,20,AU,1577993512,82,-31.95,115.86,59.0,10.29
152,Carutapera,100,BR,1577993547,81,-1.2,-46.02,81.19,14.76
153,Waingapu,100,ID,1577993547,71,-9.65,120.26,83.55,7.54
154,Sobolevo,100,RU,1577993547,96,54.43,31.9,33.66,7.2
155,Vila Velha,75,BR,1577993275,78,-3.71,-38.6,86.0,9.17
156,Nador,75,MA,1577993547,82,35.17,-2.93,55.4,3.36
157,Busselton,0,AU,1577993547,55,-33.64,115.35,50.0,15.21
158,Batticaloa,0,LK,1577993547,94,7.71,81.69,73.87,1.79
159,Meulaboh,98,ID,1577993547,78,4.14,96.13,80.49,6.91
160,Tromso,75,NO,1577993547,95,69.65,18.96,42.8,20.8
161,Pocoes,100,BR,1577993547,94,-14.53,-40.37,70.65,2.66
162,Rassvet,96,RU,1577993547,65,49.11,45.47,29.17,9.75
163,Berlevag,75,NO,1577993547,86,70.86,29.09,28.4,17.22
164,Luanda,75,AO,1577993441,74,-8.83,13.24,82.4,10.29
165,Arraial do Cabo,75,BR,1577993547,74,-22.97,-42.02,86.0,6.93
166,Airai,100,TL,1577993547,96,-8.93,125.41,67.78,1.77
167,Georgetown,20,GY,1577993544,65,6.8,-58.16,86.0,9.17
168,Jalna,20,IN,1577993547,77,19.84,75.88,68.0,7.87
169,Fortuna,90,US,1577993547,100,40.6,-124.16,52.0,3.83
170,Srednekolymsk,18,RU,1577993548,79,67.46,153.71,-14.03,4.21
171,Poya,100,NC,1577993548,74,-21.35,165.16,75.33,14.29
172,Howard Springs,40,AU,1577993548,88,-12.5,131.05,82.0,2.24
173,Imeni Babushkina,100,RU,1577993548,94,59.76,43.13,34.07,8.32
174,Alyangula,40,AU,1577993548,79,-13.85,136.42,84.2,8.05
175,Norman Wells,90,CA,1577993548,76,65.28,-126.83,-4.0,13.87
176,Bethel,1,US,1577993548,75,60.79,-161.76,-13.0,8.05
177,Sao Jose da Coroa Grande,10,BR,1577993548,82,-8.9,-35.15,80.64,11.34
178,Touros,75,BR,1577993548,62,-5.2,-35.46,86.0,16.11
179,Douala,40,CM,1577993548,83,4.04,9.71,84.2,1.12
180,Nome,90,US,1577993211,94,30.04,-94.42,68.0,4.7
181,Eyl,24,SO,1577993548,79,7.98,49.82,78.3,21.52
182,Acapulco,40,MX,1577993257,58,16.86,-99.88,87.8,4.7
183,Turbat,95,PK,1577993548,63,26.0,63.05,59.74,1.48
184,Magadi,40,IN,1577993548,100,12.96,77.22,69.8,4.7
185,Hamilton,75,CA,1577993402,69,43.26,-79.87,46.99,16.11
186,Tasiilaq,20,GL,1577993548,43,65.61,-37.64,12.2,32.21
187,Makakilo City,1,US,1577993548,69,21.35,-158.09,78.01,3.36
188,Pevek,100,RU,1577993548,62,69.7,170.27,2.08,13.33
189,Itarema,2,BR,1577993548,75,-2.92,-39.92,80.13,7.34
190,Cidreira,54,BR,1577993548,76,-30.17,-50.22,73.78,23.62
191,Komsomolskiy,99,RU,1577993549,95,67.55,63.78,1.62,11.7
192,Praia da Vitoria,20,PT,1577993549,87,38.73,-27.07,55.4,6.85
193,Pangnirtung,90,CA,1577993549,77,66.15,-65.72,6.8,4.7
194,Broken Hill,0,AU,1577993549,15,-31.97,141.45,73.4,10.29
195,Luwuk,100,ID,1577993549,71,-0.95,122.79,82.09,5.59
196,Pyapon,0,MM,1577993549,70,16.29,95.68,71.42,6.62
197,Thompson,75,CA,1577993549,84,55.74,-97.86,5.0,1.66
198,Alipur Chatha,40,PK,1577993549,87,32.27,73.82,48.2,4.16
199,Shimoda,0,JP,1577993549,88,34.7,138.93,36.0,28.99
200,Vardo,1,US,1577993549,45,39.62,-77.74,52.0,5.82
201,Yulara,31,AU,1577993549,39,-25.24,130.99,82.4,5.82
202,Chimbote,47,PE,1577993549,59,-9.08,-78.59,78.04,12.24
203,Santa Maria,75,BR,1577993465,73,-16.02,-48.01,78.01,12.75
204,Capitan Bado,33,PY,1577993549,60,-23.27,-55.53,86.22,4.74
205,San Carlos de Bariloche,40,AR,1577993549,21,-41.13,-71.31,82.4,10.29
206,Khandagayty,95,MN,1577993549,93,50.73,92.07,-12.62,1.7
207,Mount Isa,100,AU,1577993549,74,-20.73,139.49,78.8,2.24
208,Victoria,75,BN,1577993354,83,5.28,115.24,80.6,3.36
209,Mumford,0,GH,1577993550,52,5.26,-0.76,75.96,2.55
210,Black River,40,JM,1577993550,74,18.03,-77.85,86.0,13.87
211,Soubre,0,CI,1577993550,31,5.79,-6.61,75.22,2.06
212,Qaanaaq,2,GL,1577993550,64,77.48,-69.36,-40.41,5.86
213,Ukiah,1,US,1577993522,62,39.15,-123.21,57.99,5.26
214,Mapastepec,9,MX,1577993550,48,15.44,-92.9,86.94,8.97
215,Ribeira Grande,20,PT,1577993550,67,38.52,-28.7,57.2,8.05
216,Rodos,75,GR,1577993550,93,36.44,28.22,54.0,3.36
217,Kempele,100,FI,1577993550,75,64.91,25.51,41.0,11.41
218,Murgab,40,TM,1577993550,86,37.5,61.97,39.2,5.46
219,Athabasca,58,CA,1577993550,80,54.72,-113.29,24.46,14.76
220,Yarmouth,75,CA,1577993550,64,43.84,-66.12,37.99,14.99
221,Guerrero Negro,0,MX,1577993550,61,27.97,-114.04,63.84,11.7
222,Aksum,77,ET,1577993550,57,14.12,38.72,66.56,3.83
223,Koumac,68,NC,1577993550,81,-20.56,164.28,70.88,4.27
224,Carauari,63,BR,1577993550,52,-4.88,-66.9,89.37,3.18
225,Tulum,75,MX,1577993550,74,20.21,-87.46,84.99,9.17
226,Senanga,100,ZM,1577993550,83,-16.1,23.3,73.08,5.23
227,Flagstaff,1,US,1577993494,37,35.2,-111.65,55.0,14.99
228,Cody,40,US,1577993551,29,44.53,-109.06,45.0,20.8
229,Kovdor,100,RU,1577993551,93,67.56,30.47,37.8,17.31
230,Port Elizabeth,1,US,1577993551,53,39.31,-74.98,54.0,10.29
231,Kumano,78,JP,1577993551,38,34.34,132.59,43.0,3.62
232,Aykhal,50,RU,1577993551,83,65.95,111.51,-11.2,4.47
233,Vestmannaeyjar,99,IS,1577993551,83,63.44,-20.27,25.88,3.53
234,Goundi,98,TD,1577993551,21,9.36,17.37,66.88,5.77
235,Dicabisagan,100,PH,1577993551,86,17.08,122.42,73.49,13.76
236,Wad Rawah,0,SD,1577993551,21,15.16,33.13,75.34,18.3
237,Rongcheng,9,CN,1577993551,75,37.16,122.42,33.82,8.23
238,Casa Grande,20,PE,1577993551,78,-7.74,-79.19,73.4,12.75
239,Guatire,75,VE,1577993551,66,10.47,-66.54,86.0,5.82
240,Keuruu,40,FI,1577993551,86,62.26,24.71,39.0,12.75
241,Houston,90,US,1577993443,100,29.76,-95.37,64.99,9.95
242,Tabuk,76,PH,1577993551,87,17.41,121.44,69.3,7.02
243,Micheweni,67,TZ,1577993551,81,-4.97,39.83,82.62,18.3
244,Bambous Virieux,75,MU,1577993551,88,-20.34,57.76,78.8,3.36
245,Mahajanga,40,MG,1577993551,94,-15.72,46.32,78.8,4.7
246,Harstad,75,NO,1577993552,81,68.8,16.53,42.8,44.96
247,Castro,40,CL,1577993552,57,-42.48,-73.76,75.2,8.05
248,Gizo,20,IL,1577993552,76,31.8,34.94,55.4,6.93
249,Chisec,69,GT,1577993552,61,15.81,-90.29,84.02,4.41
250,Jiayuguan,100,CN,1577993552,48,39.77,98.29,22.6,5.66
251,Camopi,100,GF,1577993552,71,3.17,-52.33,78.37,3.78
252,Menongue,100,AO,1577993552,95,-14.66,17.68,65.66,4.94
253,Caluire-et-Cuire,75,FR,1577993552,91,45.8,4.84,41.0,2.24
254,Bintulu,75,MY,1577993552,94,3.17,113.03,78.8,0.92
255,Mao,40,DO,1577993552,58,19.55,-71.08,88.0,14.99
256,Tokur,95,RU,1577993552,99,53.13,132.9,-28.08,1.66
257,San Patricio,67,PY,1577993552,49,-26.98,-56.83,85.98,9.42
258,Gonbad-e Qabus,21,IR,1577993552,75,37.25,55.17,42.8,3.15
259,Boden,100,SE,1577993552,80,65.83,21.69,39.2,8.05
260,Okhotsk,92,RU,1577993552,74,59.36,143.24,9.0,20.36
261,Clarksville,90,US,1577993552,100,36.53,-87.36,52.0,9.17
262,Santa Rosalia,40,IT,1577993552,76,38.07,13.27,59.0,6.93
263,Yelizovo,75,RU,1577993552,72,53.19,158.38,10.4,6.71
264,Chara,20,GR,1577993552,59,39.42,22.43,42.01,6.93
265,Nago,0,IT,1577993553,100,45.88,10.89,42.01,1.12
266,Ust-Nera,99,RU,1577993553,100,64.57,143.24,-11.02,1.97
267,Shache,94,CN,1577993553,77,38.42,77.24,19.27,1.88
268,Ivanteyevka,90,RU,1577993553,94,55.97,37.92,37.0,11.18
269,Sagarejo,100,GE,1577993553,60,41.73,45.33,41.0,20.8
270,Linkuva,42,LT,1577993553,93,56.09,23.97,37.4,14.99
271,Padang,85,ID,1577993553,91,-0.92,100.36,68.52,3.76
272,Nouadhibou,100,MR,1577993553,42,20.93,-17.03,66.2,6.93
273,Grand Gaube,75,MU,1577993553,88,-20.01,57.66,78.8,3.36
274,Paamiut,100,GL,1577993553,43,61.99,-49.67,25.9,9.66
275,Lewisporte,75,CA,1577993553,83,49.25,-55.06,32.0,14.99
276,Ust-Omchug,100,RU,1577993553,96,61.13,149.63,3.18,11.18
277,Kungalv,75,SE,1577993553,86,57.87,11.98,44.01,24.16
278,Port Hedland,33,AU,1577993553,78,-20.31,118.58,80.6,3.36
279,Chitral,100,PK,1577993553,90,35.85,71.79,11.07,3.06
280,Kingsland,1,US,1577993553,37,30.8,-81.69,77.0,9.17
281,Beringovskiy,0,RU,1577993553,81,63.05,179.32,-11.9,14.7
282,Cherskiy,9,RU,1577993554,70,68.75,161.3,-2.43,12.24
283,Nuevo Progreso,90,US,1577993554,77,26.05,-97.95,69.01,9.17
284,Vao,15,EE,1577993554,89,59.1,26.19,37.09,12.93
285,Kununurra,100,AU,1577993554,83,-15.77,128.74,82.4,3.36
286,Sisimiut,100,GL,1577993554,93,66.94,-53.67,11.73,10.65
287,Bereda,40,ES,1577993554,81,43.27,-7.54,55.0,9.17
288,Peniche,75,PT,1577993554,93,39.36,-9.38,55.0,3.36
289,Port Blair,23,IN,1577993554,77,11.67,92.75,80.89,12.86
290,Mackay,75,CA,1577993554,53,53.65,-115.58,26.6,20.8
291,Homer,1,US,1577993554,77,59.64,-151.54,10.99,4.7
292,Yinchuan,0,CN,1577993554,73,38.48,106.21,21.72,1.72
293,Saint-Joseph,100,FR,1577993554,87,43.56,6.97,52.0,4.7
294,Shimanovsk,0,RU,1577993554,86,52.0,127.67,-11.54,6.91
295,Cloquet,90,US,1577993554,80,46.72,-92.46,33.8,13.87
296,Emerald,75,AU,1577993554,78,-23.53,148.16,77.0,8.05
297,Richards Bay,100,ZA,1577993554,87,-28.77,32.06,78.96,11.52
298,Saint-Philippe,75,CA,1577993554,80,45.36,-73.48,39.2,10.29
299,Mitchell,75,US,1577993502,74,43.71,-98.03,37.4,8.05
300,Kholtoson,20,RU,1577993555,86,50.3,103.31,-1.48,2.71
301,Boa Vista,40,BR,1577993345,36,2.82,-60.67,91.4,13.87
302,Wanning,0,AT,1577993555,92,48.64,13.53,32.0,3.36
303,Kahului,40,US,1577993555,69,20.89,-156.47,75.2,8.16
304,Cienfuegos,20,CU,1577993555,55,22.15,-80.44,86.0,6.93
305,Zvishavane,85,ZW,1577993555,47,-20.32,30.05,74.53,5.97
306,Constitucion,40,MX,1577993356,37,23.99,-104.67,53.6,24.16
307,Severo-Kurilsk,26,RU,1577993555,90,50.68,156.12,15.35,5.01
308,Chatham,1,CA,1577993555,70,42.41,-82.19,48.2,18.34
309,Salalah,20,OM,1577993555,57,17.01,54.1,75.2,4.7
310,Makiyivka,100,UA,1577993555,77,48.05,37.93,31.06,8.37
311,Bud,75,NO,1577993555,87,62.91,6.91,46.4,16.11
312,Derzhavinsk,100,KZ,1577993555,94,51.1,66.31,29.14,15.21
313,San Quintin,12,PH,1577993555,81,17.54,120.52,66.36,5.73
314,Saint Anthony,90,US,1577993555,86,43.97,-111.68,30.0,11.41
315,Ixtapa,75,MX,1577993555,60,20.71,-105.21,75.2,2.24
316,Quatre Cocos,75,MU,1577993555,88,-20.21,57.76,78.8,3.36
317,Sinnamary,57,GF,1577993555,72,5.38,-52.96,80.04,12.46
318,Gat,96,SN,1577993556,23,14.69,-16.54,84.2,11.05
319,Urdoma,100,RU,1577993556,93,61.74,48.55,19.29,10.96
320,Itacoatiara,20,BR,1577993556,66,-3.14,-58.44,89.6,5.82
321,Turangi,99,NZ,1577993556,56,-39.0,175.93,72.0,8.99
322,Alice Springs,14,AU,1577993556,21,-23.7,133.88,89.6,8.05
323,Susangerd,40,IR,1577993556,82,31.56,48.19,55.4,1.68
324,Batagay-Alyta,11,RU,1577993556,82,67.8,130.41,-16.17,4.38
325,Lithgow,90,AU,1577993556,78,-33.48,150.16,71.6,3.36
326,Bubaque,100,GW,1577993556,59,11.28,-15.83,79.74,9.48
327,Adrar,0,DZ,1577993556,22,27.87,-0.29,53.6,10.29
328,Pacific Grove,1,US,1577993495,77,36.62,-121.92,61.0,5.82
329,Manaus,40,BR,1577993556,62,-3.13,-59.98,87.8,2.24
330,Pestovo,90,RU,1577993556,93,55.36,37.98,37.0,6.71
331,Ghanzi,45,BW,1577993556,55,-21.7,21.65,79.65,5.1
332,Inhambane,11,MZ,1577993556,78,-23.87,35.38,80.6,3.36
333,Bulgan,0,MN,1577993557,68,48.81,103.53,7.52,4.27
334,Lagoa,75,PT,1577993557,82,37.14,-8.45,60.01,6.93
335,Salamiyah,100,SY,1577993557,82,35.01,37.05,47.53,1.61
336,Broome,75,GB,1577993557,81,52.47,1.45,51.01,14.99
337,Sarangani,100,PH,1577993557,86,5.4,125.46,75.47,5.28
338,Clyde River,90,CA,1577993557,83,70.47,-68.59,-5.8,6.93
339,Ostrovnoy,100,RU,1577993557,94,68.05,39.51,28.85,16.84
340,Palmer,34,AU,1577993557,23,-34.85,139.16,80.01,9.17
341,Haines Junction,72,CA,1577993543,99,60.75,-137.51,-2.94,5.44
342,Tyup,11,KG,1577993557,29,42.73,78.36,17.76,4.63
343,Auki,0,NG,1577993557,19,12.18,6.51,59.27,14.99
344,Barcelona,40,ES,1577993494,81,41.38,2.18,52.0,5.82
345,Rancho Palos Verdes,75,US,1577993557,67,33.75,-118.37,66.99,2.26
346,Kinsale,75,IE,1577993557,93,51.71,-8.52,50.0,16.11
347,Pandan,68,PH,1577993558,80,11.72,122.09,79.81,23.0
348,Aklavik,90,CA,1577993558,76,68.22,-135.01,-11.2,9.17
349,Tripoli,0,GR,1577993480,36,37.51,22.37,48.99,11.41
350,Zhuhai,0,CN,1577993558,84,40.71,112.04,1.4,4.47
351,Ahipara,51,NZ,1577993558,100,-35.17,173.16,64.0,1.01
352,Namatanai,0,PG,1577993558,77,-3.66,152.44,82.31,3.67
353,Hofn,8,IS,1577993558,57,64.25,-15.21,24.24,16.17
354,Pittsfield,1,US,1577993323,76,39.61,-90.81,53.01,9.17
355,Lapa,90,BR,1577993558,83,-25.77,-49.72,73.4,13.87
356,Vostok,100,RU,1577993558,97,46.45,135.83,-9.76,7.58
357,Faya,0,SA,1577993558,38,18.39,42.45,60.8,3.69
358,Dhamtari,75,IN,1577993558,93,20.71,81.55,60.8,9.17
359,Russell,1,US,1577993558,61,38.9,-98.86,46.99,13.87
360,Dharchula,100,IN,1577993558,91,29.85,80.53,25.79,6.2
361,Sabha,0,LY,1577993558,62,27.03,14.43,47.93,10.6
362,Alekseyevsk,100,RU,1577993558,94,57.84,108.35,16.12,8.72
363,Erzurum,75,TR,1577993553,85,39.91,41.27,23.0,5.82
364,Iralaya,40,HN,1577993558,74,15.0,-83.23,84.2,6.93
365,Tilichiki,100,RU,1577993289,90,60.47,166.1,8.4,6.76
366,Mantua,16,IT,1577993559,100,45.16,10.79,42.01,1.12
367,Lebu,20,ET,1577993559,63,8.96,38.73,62.6,11.41
368,Lasa,75,CY,1577993559,81,34.92,32.53,53.6,12.75
369,Huangchuan,100,CN,1577993559,93,24.57,102.46,50.0,11.18
370,La Ronge,90,CA,1577993559,92,55.1,-105.3,26.6,4.7
371,Ankazoabo,6,MG,1577993559,80,-22.29,44.51,73.44,1.34
372,Sorland,75,NO,1577993559,87,67.67,12.69,42.8,25.28
373,Berdigestyakh,100,RU,1577993559,95,62.1,126.7,-28.59,3.53
374,Manzini,0,SZ,1577993559,83,-26.5,31.37,84.2,1.63
375,Presidencia Roque Saenz Pena,56,AR,1577993559,36,-26.79,-60.44,89.38,8.01
376,Burnie,7,AU,1577993559,76,-41.05,145.91,51.01,11.01
377,Havre-Saint-Pierre,90,CA,1577993559,73,50.23,-63.6,26.6,14.99
378,Ajdabiya,17,LY,1577993559,67,30.75,20.22,51.44,9.71
379,Port-Gentil,40,GA,1577993559,88,-0.72,8.78,82.4,4.7
380,Namibe,100,AO,1577993559,82,-15.19,12.15,73.11,9.35
381,Zyryanskoye,100,RU,1577993560,87,56.83,86.62,29.12,15.12
382,Uige,100,AO,1577993560,94,-7.61,15.06,69.82,2.46
383,Rio Grande,40,BR,1577993522,51,-32.03,-52.1,84.2,12.75
384,Bhandaria,56,BD,1577993560,73,22.49,90.06,64.54,5.21
385,Sept-Iles,20,CA,1577993396,58,50.2,-66.38,27.0,16.11
386,Musoma,20,TZ,1577993560,78,-1.5,33.81,73.4,1.77
387,Hope,90,US,1577993560,98,33.67,-93.59,55.99,4.7
388,Nuuk,75,GL,1577993560,68,64.17,-51.74,24.8,8.05
389,Praya,75,ID,1577993560,100,-8.71,116.27,77.0,5.1
390,Beloha,58,MG,1577993560,82,-25.17,45.06,73.89,12.01
391,Ginir,0,ET,1577993560,84,7.14,40.71,59.29,5.37
392,Pital,91,CO,1577993560,92,2.27,-75.81,65.23,2.42
393,Filadelfia,0,PY,1577993560,23,-22.35,-60.04,97.11,15.1
394,The Valley,20,AI,1577993560,74,18.22,-63.06,84.0,9.17
395,Svetlaya,100,RU,1577993560,65,46.54,138.33,11.62,12.03
396,Banff,1,CA,1577993421,80,51.18,-115.57,25.0,4.0
397,Paramonga,67,PE,1577993561,88,-10.68,-77.82,69.19,10.98
398,Manadhoo,48,MV,1577993561,79,5.77,73.38,82.08,13.67
399,Farim,100,GW,1577993561,44,12.48,-15.22,80.6,2.24
400,Videira,10,BR,1577993561,79,-27.01,-51.15,72.3,5.82
401,Huarmey,79,PE,1577993561,54,-10.07,-78.15,78.42,10.74
402,Sena Madureira,65,BR,1577993561,97,-9.07,-68.66,76.77,2.91
403,Pitimbu,20,BR,1577993265,66,-7.47,-34.81,84.2,10.29
404,Bitam,100,GA,1577993561,93,2.08,11.49,71.38,3.8
405,Kudahuvadhoo,97,MV,1577993561,77,2.67,72.89,82.2,8.97
406,Chunskiy,100,RU,1577993561,96,56.08,99.63,24.66,5.14
407,Mehamn,75,NO,1577993561,86,71.03,27.85,28.4,17.22
408,Tautira,75,PF,1577993561,66,-17.73,-149.15,86.0,13.87
409,Montepuez,100,MZ,1577993561,95,-13.13,39.0,73.36,2.06
410,Oneonta,57,US,1577993369,55,42.45,-75.06,46.0,4.0
411,Akureyri,60,IS,1577993561,92,65.68,-18.09,14.0,6.93
412,North Chicago,1,US,1577993476,61,42.33,-87.84,50.0,18.34
413,Samarkand,75,UZ,1577993562,100,39.65,66.98,39.2,6.93
414,Maltahohe,100,NA,1577993562,15,-24.83,16.98,81.16,15.48
415,Tessalit,0,ML,1577993562,27,20.2,1.01,53.82,14.0
416,Farafangana,0,MG,1577993562,77,-22.82,47.83,80.46,10.87
417,Mumbwa,96,ZM,1577993562,94,-14.99,27.06,67.24,2.37
418,Port Lincoln,80,AU,1577993562,23,-34.72,135.86,77.7,15.84
419,Kumylzhenskaya,100,RU,1577993562,84,49.88,42.59,30.0,4.0
420,Santo Antonio do Ica,94,BR,1577993562,60,-3.1,-67.94,88.16,2.75
421,Ola,69,RU,1577993562,83,59.58,151.3,21.54,50.04
422,Glasgow,99,GB,1577993424,93,55.86,-4.24,52.0,24.16
423,Rodnykove,100,UA,1577993562,74,47.68,37.95,30.96,8.39
424,Vestmanna,100,FO,1577993562,64,62.16,-7.17,37.4,28.86
425,Moi,100,NO,1577993562,89,58.46,6.55,46.0,15.99
426,Khilok,98,RU,1577993563,91,51.36,110.46,0.82,3.36
427,Santa Luzia,75,BR,1577993563,88,-19.77,-43.85,73.4,10.29
428,Te Anau,33,NZ,1577993563,64,-45.41,167.72,48.04,8.79
429,Natal,75,BR,1577993563,62,-5.81,-35.21,86.0,16.11
430,Jalingo,0,NG,1577993563,17,10.3,10.93,60.73,10.42
431,Ormara,100,PK,1577993563,52,25.21,64.64,69.87,9.08
432,Avera,90,US,1577993563,93,33.19,-82.53,53.6,3.36
433,Visnes,75,NO,1577993563,87,59.36,5.22,46.4,20.8
434,Kafue,100,ZM,1577993563,69,-15.74,28.18,75.2,3.36
435,Dhidhdhoo,14,MV,1577993563,74,6.88,73.1,82.45,10.54
436,Whitewater,1,US,1577993472,70,42.83,-88.73,46.4,10.29
437,Betong,66,MY,1577993563,98,5.77,101.07,68.11,3.09
438,Mogadishu,9,SO,1577993305,82,2.04,45.34,81.54,23.6
439,Ortona,0,IT,1577993563,86,42.35,14.4,46.0,6.93
440,Pahrump,1,US,1577993563,32,36.21,-115.98,57.0,10.29
441,Shaki,75,AM,1577993563,74,39.56,46.0,33.8,4.7
442,Valparaiso,75,US,1577993564,66,41.47,-87.06,48.99,16.11
443,Malacacheta,100,BR,1577993564,80,-17.84,-42.08,78.26,1.57
444,Ciudad Bolivar,10,VE,1577993564,38,8.12,-63.55,88.02,10.74
445,Bria,100,CF,1577993564,30,6.54,21.99,75.63,5.84
446,Winnipeg,75,CA,1577993375,85,49.88,-97.17,21.99,17.22
447,Bay Roberts,90,CA,1577993564,86,47.58,-53.28,34.0,17.22
448,Del Rio,1,US,1577993564,59,29.36,-100.9,62.6,12.88
449,Mount Gambier,86,AU,1577993564,93,-37.83,140.78,51.8,5.82
450,Kandrian,12,PG,1577993564,90,-6.21,149.55,76.73,2.91
451,Sayyan,75,YE,1577993564,56,15.17,44.32,60.82,3.15
452,Bayji,0,IQ,1577993564,61,34.93,43.49,50.61,3.83
453,Kieta,25,PG,1577993564,79,-6.22,155.63,81.32,4.72
454,Opuwo,100,NA,1577993564,64,-18.06,13.84,75.38,10.38
455,San Isidro,75,CR,1577993564,54,10.02,-84.06,80.6,11.41
456,Viedma,13,AR,1577993564,30,-40.81,-62.99,85.46,20.87
457,Ciuperceni,0,RO,1577993564,65,44.94,23.01,31.77,1.03
458,Mosquera,40,CO,1577993565,52,4.71,-74.23,69.8,17.22
459,Comodoro Rivadavia,0,AR,1577993565,14,-45.87,-67.48,95.0,19.46
460,Kijang,0,KR,1577993565,70,35.24,129.21,32.0,9.17
461,Korgen,75,NO,1577993565,87,66.08,13.83,46.4,12.75
462,Klaksvik,100,FO,1577993565,64,62.23,-6.59,37.4,28.86
463,Kamaishi,0,JP,1577993565,73,39.28,141.86,27.99,5.01
464,Labytnangi,0,RU,1577993565,89,66.66,66.39,-2.34,8.19
465,Kjollefjord,75,NO,1577993565,86,70.95,27.35,28.4,17.22
466,Cividale del Friuli,0,IT,1577993565,66,46.09,13.43,45.0,2.24
467,Dothan,90,US,1577993565,64,31.22,-85.39,73.99,16.11
468,Notodden,20,NO,1577993330,80,59.56,9.26,44.01,6.93
469,Svetlogorsk,75,RU,1577993565,85,53.14,59.15,23.0,4.47
470,Qesarya,20,IL,1577993565,76,32.52,34.9,55.4,6.93
471,Qasigiannguit,75,GL,1577993565,78,68.82,-51.19,8.6,20.8
472,Lamar,1,US,1577993565,39,38.09,-102.62,48.2,11.41
473,Yerbogachen,100,RU,1577993565,95,61.28,108.01,9.45,5.68
474,Tirumullaivasal,66,IN,1577993566,82,11.24,79.84,80.01,8.1
475,Carupano,0,VE,1577993566,65,10.67,-63.26,81.36,3.98
476,Tieli,100,CN,1577993566,99,46.98,128.05,-12.1,5.55
477,Iqaluit,90,CA,1577993566,85,63.75,-68.52,10.4,3.36
478,Tarakan,100,ID,1577993566,91,3.3,117.63,75.87,4.09
479,Coahuayana,3,MX,1577993566,32,18.62,-100.35,89.29,3.69
480,Yeppoon,1,AU,1577993566,83,-23.13,150.74,75.2,8.05
481,Kichera,100,RU,1577993566,97,55.93,110.1,4.57,1.45
482,Yar-Sale,0,RU,1577993566,96,66.83,70.83,-5.85,10.49
483,Illapel,0,CL,1577993566,33,-31.63,-71.17,72.54,10.47
484,Obihiro,3,JP,1577993566,78,42.92,143.2,17.51,5.77
485,Izumo,75,JP,1577993566,70,35.37,132.75,48.2,11.41
486,Sibolga,100,ID,1577993566,93,1.74,98.78,72.18,2.24
487,Diamantina,100,BR,1577993461,90,-18.24,-43.6,71.17,2.28
488,Barreiras,100,BR,1577993566,98,-12.14,-45.0,70.63,1.34
489,Oksfjord,75,NO,1577993566,70,70.24,22.35,42.8,24.16
490,Taoudenni,100,ML,1577993566,23,22.68,-3.98,57.43,11.83
491,Manuk Mangkaw,66,PH,1577993567,77,4.8,119.85,81.41,13.6
492,Port Macquarie,40,AU,1577993567,88,-31.43,152.91,68.0,10.13
493,Chickasha,1,US,1577993433,50,35.05,-97.94,59.0,4.7
494,Flinders,95,AU,1577993567,88,-34.58,150.85,70.0,5.35
495,Barbacena,75,BR,1577993567,88,-21.23,-43.77,69.8,5.82
496,Balikpapan,100,ID,1577993567,94,-1.24,116.86,74.32,2.51
497,Ugoofaaru,100,MV,1577993567,78,5.67,73.0,82.22,14.38
498,Progreso,20,UY,1577993567,69,-34.68,-56.22,75.99,17.22
499,Portland,40,US,1577993009,59,43.66,-70.25,39.99,8.05
500,Grindavik,75,IS,1577993567,62,63.84,-22.43,24.8,24.16
501,Nacala,100,MZ,1577993567,91,-14.56,40.69,72.52,8.16
502,Nautla,97,MX,1577993567,64,20.22,-96.78,80.78,4.99
503,Solnechnyy,98,RU,1577993567,91,50.72,136.64,-8.12,3.13
504,Tadine,0,NC,1577993567,62,-21.55,167.88,78.08,10.02
505,Voh,88,NC,1577993567,70,-20.95,164.69,76.14,5.91
506,Kamyshla,0,RU,1577993568,95,54.11,52.14,3.09,6.29
507,Livingston,90,US,1577993370,94,32.58,-88.19,68.0,5.82
508,Port Hawkesbury,75,CA,1577993568,69,45.62,-61.36,35.01,23.04
509,Corinth,75,GR,1577993568,49,37.94,22.93,48.99,19.01
510,Kindu,100,CD,1577993568,97,-2.95,25.92,70.92,1.83
511,Bao,0,BF,1577993568,19,13.0,-3.22,65.46,10.2
512,Rincon,40,PA,1577993568,66,8.46,-82.28,86.0,8.05
513,Calvinia,0,ZA,1577993568,73,-31.47,19.78,62.2,3.8
514,Carmo do Paranaiba,98,BR,1577993568,67,-19.0,-46.32,81.0,4.36
515,Deniliquin,0,AU,1577993568,36,-35.53,144.96,71.1,7.67
516,Hisor,90,TJ,1577993568,87,38.53,68.55,42.8,6.71
517,Lodja,100,CD,1577993568,97,-3.52,23.6,69.42,0.76
518,Victoria,75,BN,1577993568,83,5.28,115.24,80.6,3.36
519,Bainbridge,1,US,1577993568,38,30.9,-84.58,75.2,14.99
520,Mayumba,100,GA,1577993569,84,-3.44,10.65,81.9,3.24
521,Aksu,98,KZ,1577993569,79,52.04,76.93,24.8,8.95
522,Pacifica,75,US,1577993569,81,37.61,-122.49,60.01,4.7
523,Nampula,75,MZ,1577993569,94,-15.12,39.26,75.2,6.93
524,Hastings,3,NZ,1577993569,66,-39.64,176.84,68.25,1.36
525,Tucdao,100,PH,1577993569,90,11.7,124.47,74.21,8.41
526,Dunedin,45,NZ,1577993549,60,-45.87,170.5,55.0,24.0
527,Iwanai,100,JP,1577993569,67,42.97,140.51,25.7,14.81
528,Usinsk,100,RU,1577993569,93,66.0,57.56,2.46,21.07
529,Alihe,0,CN,1577993569,87,50.57,123.73,-11.69,4.5
530,Ambovombe,17,MG,1577993569,86,-25.18,46.09,73.49,9.4
